City,Lat,Lng,Max Temp,Humidity,Cloudiness,Wind Speed,Country,Date
sur,22.5667,59.5289,25.44,60,0,4.32,OM,1731637688
adamstown,-25.066,-130.1015,23.31,87,80,3.93,PN,1731637689
kirakira,-10.4544,161.9205,29.61,71,49,4.26,SB,1731637691
dolbeau-mistassini,48.8763,-72.212,-2.74,68,100,2.27,CA,1731637692
aasiaat,68.7098,-52.8699,-16.41,99,93,4.82,GL,1731637693
blackmans bay,-43.0167,147.3167,15.29,56,94,2.84,AU,1731637694
jamestown,42.097,-79.2353,5.01,95,100,4.63,US,1731637484
edinburgh of the seven seas,-37.0676,-12.3116,14.08,87,99,9.05,SH,1731637697
kill devil hills,36.0307,-75.676,15.55,85,100,5.66,US,1731637604
ushuaia,-54.8,-68.3,10.81,54,40,2.57,AR,1731637700
daleville,31.3102,-85.713,17.11,72,0,3.09,US,1731637595
yorkton,51.2167,-102.4677,3.91,100,100,3.6,CA,1731637607
bethel,41.3712,-73.414,4.01,50,0,0.0,US,1731637703
port-aux-francais,-49.35,70.2167,3.79,70,100,11.54,TF,1731637704
mount gambier,-37.8333,140.7667,20.47,35,79,2.34,AU,1731637705
wailua homesteads,22.0669,-159.378,25.44,79,100,9.26,US,1731637706
ust-nera,64.5667,143.2,-25.78,94,84,1.32,RU,1731637708
west island,-12.1568,96.8225,26.99,94,75,7.72,CC,1731637709
college,64.8569,-147.8028,-18.84,78,40,3.6,US,1731637710
yellowknife,62.456,-114.3525,-9.21,99,100,4.63,CA,1731637711
carnarvon,-24.8667,113.6333,24.55,60,0,4.59,AU,1731637624
otacilio costa,-27.4831,-50.1219,13.35,91,86,3.47,BR,1731637713
grytviken,-54.2811,-36.5092,0.85,66,89,3.81,GS,1731637715
thompson,55.7435,-97.8558,-2.91,68,100,4.12,CA,1731637508
stanley,54.868,-1.6985,7.01,100,100,2.06,GB,1731637717
whitehorse,60.7161,-135.0538,-12.21,99,58,1.46,CA,1731637718
roma,43.2128,-75.4557,4.08,41,0,3.6,US,1731637460
bilibino,68.0546,166.4372,-26.35,100,97,0.19,RU,1731637720
ilulissat,69.2167,-51.1,-6.99,58,3,8.75,GL,1731637721
hermanus,-34.4187,19.2345,13.78,88,1,3.94,ZA,1731637722
hadibu,12.65,54.0333,25.39,72,37,4.56,YE,1731637725
udachny,66.4167,112.4,-29.19,99,65,3.24,RU,1731637726
tiksi,71.6872,128.8694,-23.87,100,100,1.0,RU,1731637727
ostrovskoye,57.8057,42.2433,-1.35,91,100,3.34,RU,1731637728
twentynine palms,34.1356,-116.0542,17.36,18,87,0.45,US,1731637729
longyearbyen,78.2186,15.6401,-2.09,93,100,11.83,SJ,1731637730
waycross,31.2136,-82.354,19.94,93,50,0.45,US,1731637734
orsha,54.5153,30.4053,-0.28,96,100,3.9,BY,1731637735
papatowai,-46.5619,169.4708,10.43,74,100,4.95,NZ,1731637736
miles city,46.4083,-105.8406,6.54,39,0,3.09,US,1731637737
utrik,11.2278,169.8474,28.29,73,36,3.93,MH,1731637738
rawson,-43.3002,-65.1023,19.16,42,0,3.09,AR,1731637739
dunedin,-45.8742,170.5036,9.07,86,100,7.58,NZ,1731637741
santa marta,11.2408,-74.199,27.16,80,75,4.92,CO,1731637565
inhambane,-23.865,35.3833,21.78,70,87,5.03,MZ,1731637743
avarua,-21.2078,-159.775,24.03,64,75,5.66,CK,1731637744
waitangi,-43.9535,-176.5597,13.52,86,100,13.99,NZ,1731637745
ulladulla,-35.35,150.4667,18.01,69,89,2.08,AU,1731637746
callao,-12.0667,-77.15,20.4,77,0,5.14,PE,1731637530
hawaiian paradise park,19.5933,-154.9731,25.73,78,100,3.09,US,1731637748
saipan,15.1355,145.701,31.39,79,40,6.69,MP,1731637750
ribeira grande,38.5167,-28.7,17.1,78,76,1.79,PT,1731637751
amahai,-3.3333,128.9167,29.06,69,12,2.05,ID,1731637753
invercargill,-46.4,168.35,12.79,66,87,7.6,NZ,1731637754
fort st. john,56.2499,-120.8529,-8.06,86,75,4.63,CA,1731637755
tongouson,5.0214,120.1328,28.5,71,93,0.47,PH,1731637756
chadron,42.8294,-102.9999,6.09,51,0,2.57,US,1731637701
baoqing,46.3317,132.2111,1.94,48,0,4.54,CN,1731637759
dourados,-22.2211,-54.8056,20.89,46,4,3.16,BR,1731637760
guerrero negro,27.9769,-114.0611,17.0,79,0,5.85,MX,1731637761
onega,63.9061,38.1404,0.08,90,66,4.49,RU,1731637762
sitka,57.0531,-135.33,3.94,81,75,2.57,US,1731637763
antofagasta,-23.65,-70.4,16.77,77,52,1.09,CL,1731637764
toropets,56.4978,31.6353,0.37,97,100,2.87,RU,1731637765
malango,-2.9627,119.9001,28.16,60,73,1.59,ID,1731637766
el reno,35.5323,-97.955,12.96,55,0,4.18,US,1731637768
rio grande,-32.035,-52.0986,18.28,83,0,4.53,BR,1731637510
kodiak,57.79,-152.4072,6.73,76,0,0.0,US,1731637770
puerto natales,-51.7236,-72.4875,6.24,94,100,1.49,CL,1731637771
tambacounda,13.7539,-13.7586,26.67,35,100,3.19,SN,1731637772
hithadhoo,-0.6,73.0833,28.26,78,100,5.88,MV,1731637773
chonchi,-42.6128,-73.8092,10.07,96,100,2.69,CL,1731637774
yung shue wan,22.2333,114.1167,24.79,95,96,4.46,HK,1731637775
champerico,14.3,-91.9167,27.48,75,100,1.94,GT,1731637776
camapua,-19.5314,-54.0439,24.69,65,30,2.24,BR,1731637778
port lincoln,-34.7333,135.8667,17.79,65,100,6.74,AU,1731637779
kalevala,65.2,31.1667,-0.61,79,58,3.83,RU,1731637780
nuuk,64.1835,-51.7216,-3.66,63,100,3.09,GL,1731637510
cabo san lucas,22.8909,-109.9124,25.42,59,0,4.12,MX,1731637609
port mathurin,-19.6833,63.4167,24.26,75,14,7.01,MU,1731637783
kailua-kona,19.6406,-155.9956,26.98,74,40,2.57,US,1731637784
"laikit, laikit ii (dimembe)",1.4792,124.9735,29.47,70,40,1.54,ID,1731637785
kenema,7.8767,-11.1875,22.27,98,98,0.28,SL,1731637787
al kharj,24.155,47.3346,17.32,47,0,2.53,SA,1731637733
naze,28.3667,129.4833,24.51,89,100,1.3,JP,1731637789
borodino,55.9106,94.8983,-12.42,83,100,3.4,RU,1731637790
iskateley,67.6803,53.1512,0.02,93,100,6.14,RU,1731637791
alamogordo,32.8995,-105.9603,12.65,36,40,4.12,US,1731637792
shpola,49.0069,31.3947,-2.11,83,66,3.54,UA,1731637793
kottagudem,17.55,80.6333,24.01,85,27,1.1,IN,1731637794
waingapu,-9.6567,120.2641,31.93,60,62,5.44,ID,1731637796
san antonio de pale,-1.4014,5.6325,25.71,83,100,2.51,GQ,1731637797
rikaze,29.25,88.8833,4.76,25,0,0.78,CN,1731637798
bel ombre,-4.6167,55.4167,25.91,89,20,0.0,SC,1731637799
craig,40.5153,-107.5464,3.79,55,0,1.54,US,1731637801
khandyga,62.6667,135.6,-18.8,93,100,0.54,RU,1731637802
almeirim,-1.5233,-52.5817,26.77,63,99,0.61,BR,1731637803
lompoc,34.6391,-120.4579,13.4,87,100,7.72,US,1731637618
sarakhs,36.5449,61.1577,4.92,63,2,2.3,IR,1731637806
sparti,37.0733,22.4297,14.97,92,1,1.7,GR,1731637807
kuta,-8.7233,115.1723,30.97,79,20,2.57,ID,1731637808
zhezqazghan,47.7833,67.7667,-2.68,80,100,4.0,KZ,1731637809
ventspils,57.3894,21.5606,7.96,71,40,5.14,LV,1731637810
ad dindar,13.2,34.1667,27.74,47,29,2.69,SD,1731637811
sibirskiy,53.5777,83.7577,-3.56,95,100,4.93,RU,1731637812
newman,37.3138,-121.0208,13.36,73,100,0.89,US,1731637813
aabenraa,55.0443,9.4174,8.18,95,55,5.05,DK,1731637815
papao,-17.75,-149.55,28.82,81,100,5.01,PF,1731637816
kourou,5.1552,-52.6478,26.08,88,28,3.39,GF,1731637817
fort william,56.8165,-5.1121,11.28,96,100,2.08,GB,1731637743
vorkuta,67.5,64.0,-7.16,96,100,5.01,RU,1731637819
tolanaro,-25.0319,46.9987,23.04,94,75,1.54,MG,1731637820
fale old settlement,-9.3852,-171.2468,28.25,74,90,4.01,TK,1731637822
gebeit,21.0667,36.3167,19.66,58,0,2.59,SD,1731637823
east london,-33.0153,27.9116,15.81,85,3,3.91,ZA,1731637824
anadyr,64.75,177.4833,-9.72,73,75,2.0,RU,1731637825
ancud,-41.8697,-73.8203,11.09,92,100,5.57,CL,1731637797
carolina,18.3808,-65.9574,24.89,92,99,0.45,PR,1731637827
galliano,29.4422,-90.2992,17.0,72,0,2.57,US,1731637828
aykhal,66.0,111.5,-27.0,100,100,3.83,RU,1731637829
port alfred,-33.5906,26.891,15.3,86,38,2.88,ZA,1731637831
itamaraca,-7.7478,-34.8256,24.51,76,3,3.21,BR,1731637832
remire-montjoly,4.9167,-52.2667,26.02,94,100,1.54,GF,1731637833
talnakh,69.4865,88.3972,-30.09,98,99,3.64,RU,1731637834
road town,18.4167,-64.6167,27.02,78,40,3.09,VG,1731637835
revda,56.801,59.9303,-2.06,89,100,5.95,RU,1731637836
george town,5.4112,100.3354,26.97,79,20,5.81,MY,1731637818
narasannapeta,18.4167,84.05,26.23,67,10,2.67,IN,1731637839
forster,-32.1667,152.5167,19.65,95,100,3.89,AU,1731637840
ringas,27.35,75.5667,22.73,32,0,1.08,IN,1731637841
nagqu,31.5,92.0,2.65,14,2,3.44,CN,1731637842
alpine,32.835,-116.7664,13.15,78,0,0.0,US,1731637843
nar'yan-mar,67.6713,53.087,0.11,88,100,6.45,RU,1731637844
san patricio,28.017,-97.5169,16.97,34,0,3.36,US,1731637845
embi,48.8264,58.1442,-2.34,79,10,3.36,KZ,1731637846
dongning,44.0622,131.1207,9.44,65,1,1.34,CN,1731637848
hamilton,39.1834,-84.5333,11.69,94,100,6.17,US,1731637849
vernon,50.2581,-119.2691,7.09,82,87,1.54,CA,1731637802
cockburn town,21.4612,-71.1419,26.27,68,100,5.84,TC,1731637851
puerto ayora,-0.7393,-90.3518,22.53,81,66,2.24,EC,1731637852
dakhla,23.6848,-15.958,19.03,88,78,4.0,EH,1731637853
vilyuchinsk,52.9306,158.4028,-0.85,73,4,3.57,RU,1731637855
polygyros,40.3744,23.4383,9.26,88,100,1.23,GR,1731637856
hami,42.8,93.45,1.5,42,47,1.61,CN,1731637857
enewetak,11.3474,162.3373,28.4,72,47,5.72,MH,1731637858
fortuna,40.5982,-124.1573,8.88,94,100,2.06,US,1731637859
saurimo,-9.6608,20.3916,18.65,99,100,1.05,AO,1731637860
yichun,47.7,128.9,-0.83,59,59,0.95,CN,1731637861
kolpashevo,58.3131,82.9089,-17.01,92,100,2.61,RU,1731637863
bredasdorp,-34.5322,20.0403,13.2,92,23,2.26,ZA,1731637864
yuzhno-kurilsk,44.0306,145.8556,9.33,73,100,3.09,RU,1731637865
lavras,-21.2453,-44.9997,17.96,92,88,5.43,BR,1731637655
roswell,34.0232,-84.3616,11.93,95,100,1.79,US,1731637868
nosy varika,-20.5833,48.5333,22.46,81,42,1.25,MG,1731637869
hilo,19.7297,-155.09,25.85,80,100,3.09,US,1731637870
solnechnyy,50.7214,136.6319,-0.7,62,40,1.83,RU,1731637872
geraldton,-28.7667,114.6,23.23,64,100,6.69,AU,1731637873
manicore,-5.8092,-61.3003,24.72,87,79,1.08,BR,1731637874
flying fish cove,-10.4217,105.6791,27.82,89,100,5.14,CX,1731637875
sendafa,9.15,39.0333,7.87,75,32,0.98,ET,1731637876
albany,42.6001,-73.9662,1.92,60,100,0.27,US,1731637811
afif,23.9065,42.9172,17.02,30,0,3.49,SA,1731637878
polyarnyy,69.1989,33.4478,1.03,87,98,13.73,RU,1731637880
coquimbo,-29.9533,-71.3436,13.85,81,0,2.57,CL,1731637768
as salt,32.0392,35.7272,11.6,49,3,1.88,JO,1731637882
lao cai,22.4833,103.95,28.65,56,0,1.24,VN,1731637883
zhelezinka,53.54,75.3072,-5.98,93,97,5.0,KZ,1731637884
vila franca do campo,37.7167,-25.4333,18.27,99,49,6.48,PT,1731637885
woods creek,47.8787,-121.8985,7.34,94,100,1.41,US,1731637886
dyatlovo,53.4631,25.4068,-0.03,97,87,3.74,BY,1731637887
badger,64.8,-147.5333,-18.89,80,40,3.6,US,1731637889
tanjung pinang,0.9167,104.45,29.44,69,97,1.3,ID,1731637890
weno,7.4515,151.8468,31.97,70,75,3.6,FM,1731637891
middlesboro,36.6084,-83.7166,12.0,76,100,0.0,US,1731637893
barabai,-2.5833,115.3833,32.99,59,55,0.73,ID,1731637894
iwon-up,40.3231,128.6553,14.16,73,63,1.53,KP,1731637895
isangel,-19.55,169.2667,31.06,70,75,4.12,VU,1731637896
quellon,-43.1167,-73.6167,9.83,92,100,3.97,CL,1731637898
boguchany,58.3814,97.4531,-9.48,86,99,2.67,RU,1731637899
margaret river,-33.95,115.0667,16.43,69,100,7.61,AU,1731637900
cidreira,-30.1811,-50.2056,20.55,71,15,7.65,BR,1731637901
klyuchi,52.2667,79.1667,-4.65,92,100,5.66,RU,1731637902
gobabis,-22.45,18.9667,21.9,41,6,4.6,NA,1731637903
isafjordur,66.0755,-23.124,-1.55,76,89,6.46,IS,1731637905
touros,-5.1989,-35.4608,24.95,78,80,4.8,BR,1731637906
padang,-0.9492,100.3543,28.03,82,88,1.64,ID,1731637907
vadso,70.0744,29.7487,3.09,81,40,13.89,NO,1731637908
sorong,-0.8833,131.25,29.55,68,84,0.81,ID,1731637909
slave lake,55.2834,-114.769,-1.01,80,100,0.0,CA,1731637910
egilsstadir,65.2653,-14.3948,6.95,87,75,2.57,IS,1731637911
alotau,-10.3069,150.4462,30.84,60,34,2.92,PG,1731637913
lata,40.1629,-8.3327,10.61,92,43,2.31,PT,1731637914
wamba,8.9333,8.6,22.89,24,35,1.16,NG,1731637915
vorgashor,67.5833,63.95,-7.2,96,100,4.95,RU,1731637916
howrah,22.5892,88.3103,23.0,78,5,2.57,IN,1731637917
piriapolis,-34.8682,-55.2744,19.09,65,0,3.6,UY,1731637918
hinton,53.4001,-117.5857,-3.31,95,42,0.4,CA,1731637922
charlottetown,46.2352,-63.1267,3.29,95,100,12.86,CA,1731637788
georgetown,5.4112,100.3354,26.97,79,20,5.81,MY,1731637925
uturoa,-16.7333,-151.4333,26.3,75,100,5.47,PF,1731637926
khandud,36.9513,72.318,0.45,90,100,1.3,AF,1731637928
kabwe,-14.4469,28.4464,18.15,85,38,4.75,ZM,1731637803
tandalti,13.0167,31.8667,26.46,38,62,5.22,SD,1731637930
andapa,-14.65,49.65,21.24,86,100,0.41,MG,1731637931
iqaluit,63.7506,-68.5145,-0.15,86,75,5.66,CA,1731637932
tobol,52.6844,62.5794,-4.24,89,57,5.0,KZ,1731637933
chifeng,42.2683,118.9636,11.12,59,6,2.12,CN,1731637934
williams lake,52.1415,-122.1445,3.76,96,75,2.06,CA,1731637935
tromso,69.6496,18.957,1.01,93,75,6.17,NO,1731637938
hampton bays,40.869,-72.5176,7.14,57,100,1.79,US,1731637939
zhanaozen,43.3,52.8,0.54,50,95,5.87,KZ,1731637940
ippy,6.2679,21.2247,20.31,58,45,1.71,CF,1731637941
la ronge,55.1001,-105.2842,-2.86,93,100,5.66,CA,1731637942
chino,34.0122,-117.6889,17.07,69,40,5.36,US,1731637908
marienberg,50.65,13.1667,5.33,94,100,2.58,DE,1731637946
lodja,-3.4833,23.4333,20.84,99,100,1.16,CD,1731637947
minas de marcona,-15.2119,-75.1103,14.22,83,73,3.46,PE,1731637948
port blair,11.6667,92.75,29.02,79,40,1.03,IN,1731637804
la passe,45.5549,-0.8967,7.6,86,0,5.87,FR,1731637950
pariaman,-0.619,100.12,28.03,78,100,2.38,ID,1731637951
massawa,15.6097,39.45,27.98,62,0,2.91,ER,1731637952
dongola,19.1667,30.4833,20.2,27,0,5.68,SD,1731637954
port isabel,26.0734,-97.2086,21.02,73,0,3.09,US,1731637955
port douglas,-16.4833,145.4667,28.05,67,11,3.2,AU,1731637956
qaqortoq,60.7167,-46.0333,-9.91,54,61,2.77,GL,1731637957
punta arenas,-53.15,-70.9167,9.06,71,100,5.66,CL,1731637600
gardez,33.5974,69.2259,4.4,68,66,1.25,AF,1731637959
suva,-18.1416,178.4415,28.71,70,75,6.17,FJ,1731637723
alofi,-19.0595,-169.9187,25.94,65,75,9.26,NU,1731637963
palikir - national government center,6.9248,158.1611,30.41,70,100,2.57,FM,1731637964
chincha alta,-13.4099,-76.1323,17.32,90,33,0.45,PE,1731637965
olonkinbyen,70.9221,-8.7187,-3.99,85,99,8.1,SJ,1731637958
east ballina,-28.8667,153.5833,23.59,73,98,5.09,AU,1731637967
zahedan,29.4963,60.8629,7.95,71,20,3.09,IR,1731637968
derzhavinsk,51.1,66.3167,-2.36,93,100,6.48,KZ,1731637969
hasaki,35.7333,140.8333,18.42,89,100,3.76,JP,1731637955
st. john's,47.5649,-52.7093,11.2,99,100,9.26,CA,1731637923
choibalsan,48.0667,114.5,3.49,72,14,9.38,MN,1731637973
lebu,-37.6167,-73.65,12.74,93,100,0.37,CL,1731637961
faratsiho,-19.4,46.95,14.54,57,44,2.23,MG,1731637975
pinhao,-25.6956,-51.6597,14.38,90,35,2.61,BR,1731637976
mahina,-17.5065,-149.489,28.87,65,0,4.12,PF,1731637977
westport,41.1415,-73.3579,5.11,57,0,2.06,US,1731637696
bela,25.9333,81.9833,23.17,36,0,1.97,IN,1731637979
turpan,42.9333,89.1667,6.2,31,8,1.66,CN,1731637980
wanganui,-39.9333,175.05,14.7,97,100,3.58,NZ,1731637981
pangody,65.85,74.4859,-15.12,93,100,8.85,RU,1731637983
khorinsk,52.1657,109.7726,-7.99,86,100,0.48,RU,1731637984
portland,45.5234,-122.6762,9.49,92,100,0.89,US,1731637803
crossett,33.1282,-91.9612,11.12,59,0,1.72,US,1731637986
as sulayyil,20.4607,45.5779,17.8,35,5,2.88,SA,1731637987
el porvenir,13.7617,-87.3458,22.21,97,100,0.76,HN,1731637988
el charco,2.4769,-78.1105,24.29,83,100,0.89,CO,1731637989
parauapebas,-6.0675,-49.9022,22.48,98,100,0.74,BR,1731637990
kavieng,-2.5744,150.7967,29.81,65,4,4.38,PG,1731637992
san carlos de bariloche,-41.1456,-71.3082,9.86,76,75,10.8,AR,1731637993
new plymouth,-39.0667,174.0833,18.23,100,98,3.59,NZ,1731637994
loralai,30.3705,68.598,13.82,47,0,0.66,PK,1731637995
yanam,16.7333,82.2167,28.55,67,48,3.38,IN,1731637996
singaraja,-8.112,115.0882,31.14,63,100,2.35,ID,1731637997
keflavik,64.0049,-22.5624,3.24,60,75,19.03,IS,1731637998
mosjoen,65.836,13.1908,8.29,87,100,1.54,NO,1731637999
bernay,49.1667,0.6667,5.04,94,7,2.63,FR,1731638001
bathsheba,13.2167,-59.5167,28.34,74,20,2.57,BB,1731638002
acajutla,13.5928,-89.8275,26.37,83,100,2.69,SV,1731638004
nova sintra,14.8667,-24.7167,25.4,61,76,1.46,CV,1731638005
praia da vitoria,38.7333,-27.0667,17.14,77,75,7.37,PT,1731638007
sao joao da barra,-21.6403,-41.0511,21.86,94,100,3.35,BR,1731638009
vyatskiye polyany,56.226,51.0656,-0.78,91,100,4.74,RU,1731638010
kanke,23.4333,85.3167,17.01,77,16,0.0,IN,1731638011
vuktyl,63.8567,57.3094,0.48,98,100,4.37,RU,1731637995
shirgaon,19.7,72.7,26.1,57,100,2.19,IN,1731638013
mirnyy,62.5353,113.9611,-20.31,96,100,1.96,RU,1731638014
molde,62.7375,7.1591,11.91,82,100,6.17,NO,1731637761
limoeiro do norte,-5.1456,-38.0981,24.64,68,8,2.89,BR,1731638016
salacgriva,57.7536,24.3581,6.58,72,76,5.47,LV,1731638017
kuqa,41.7278,82.9364,5.34,55,0,1.96,CN,1731638020
hotan,37.0997,79.9269,7.77,35,66,1.33,CN,1731638021
taft,31.7471,54.2088,4.97,70,0,1.03,IR,1731638022
stilfontein,-26.8449,26.7683,17.02,67,6,5.4,ZA,1731638023
pacific grove,36.6177,-121.9166,12.83,93,3,4.47,US,1731638024
saldanha,-33.0117,17.9442,13.03,91,0,6.19,ZA,1731638025
new norfolk,-42.7826,147.0587,15.95,43,100,2.32,AU,1731638026
el calafate,-50.3408,-72.2768,7.49,78,42,5.58,AR,1731638028
puerto baquerizo moreno,-0.9,-89.6,21.21,75,95,4.87,EC,1731638029
kamina,-8.7386,24.9906,16.75,97,92,1.62,CD,1731638030
yarmouth,41.7057,-70.2286,6.19,63,0,5.66,US,1731638031
lida,53.8833,25.2997,0.51,94,69,4.0,BY,1731638032
afaahiti,-17.75,-149.2833,24.7,81,100,4.66,PF,1731638033
petukhovo,55.0692,67.9019,-6.7,91,100,5.77,RU,1731638035
turochak,52.2576,87.1224,-3.39,72,100,5.81,RU,1731638037
narasimharajapura,13.6167,75.5167,22.47,88,71,1.17,IN,1731638038
constantia,44.1833,28.65,5.39,90,100,3.79,RO,1731638002
emerald,-23.5333,148.1667,35.9,29,85,6.25,AU,1731638040
lazaro cardenas,17.9583,-102.2,25.73,81,45,1.55,MX,1731638041
zakamensk,50.3741,103.2863,-8.47,46,100,2.6,RU,1731638042
shahrud,36.4182,54.9763,4.17,66,2,0.45,IR,1731638043
port elizabeth,-33.918,25.5701,12.4,96,0,1.54,ZA,1731638044
al khums,32.6486,14.2619,20.05,50,0,3.12,LY,1731638046
iitti,60.8949,26.3387,-0.94,99,89,2.66,FI,1731638047
tevriz,57.509,72.4042,-5.67,93,100,3.84,RU,1731638048
nevada,39.2502,-116.7512,0.18,27,0,1.62,US,1731638049
santana,-0.0583,-51.1817,28.1,78,40,4.63,BR,1731638050
whistler,50.1164,-122.9695,1.65,97,91,1.84,CA,1731638051
pisco,-13.7,-76.2167,19.03,82,75,6.69,PE,1731638035
magong,23.5654,119.5863,24.02,94,100,8.29,TW,1731638053
susuman,62.7833,148.1667,-21.36,96,99,0.62,RU,1731638055
nkove,-7.95,30.85,24.5,65,86,1.14,TZ,1731638056
labasa,-16.4167,179.3833,28.66,65,55,4.55,FJ,1731638057
petropavlovsk-kamchatsky,53.0452,158.6483,-1.67,47,0,5.0,RU,1731638058
mantua,45.1667,10.7833,1.34,85,0,2.78,IT,1731638059
bodo,67.28,14.405,8.3,98,100,12.35,NO,1731638060
atafu village,-8.5421,-172.5159,28.07,77,100,4.57,TK,1731638061
tura,25.5198,90.2201,24.11,65,0,0.5,IN,1731638062
pucon,-39.2822,-71.9543,12.14,97,99,1.61,CL,1731637839
mournies,35.4764,24.0092,30.04,94,0,0.0,GR,1731638065
caleta de carquin,-11.0925,-77.6267,18.2,86,47,3.28,PE,1731638066
concepcion,-36.827,-73.0498,13.89,88,100,4.12,CL,1731638007
karlskoga,59.3267,14.5239,4.15,93,100,2.53,SE,1731638068
lianjiang,21.6467,110.2817,29.46,62,0,1.68,CN,1731638069
priob'ye,62.5206,65.5964,-3.49,92,100,3.78,RU,1731638070
guaraniacu,-25.1008,-52.8781,17.95,66,64,1.12,BR,1731638072
arauca,7.0847,-70.7591,25.98,94,40,1.03,CO,1731638073
tari,-11.1105,14.3559,18.39,91,98,1.51,AO,1731638074
kudahuvadhoo,2.6708,72.8944,28.28,67,13,3.19,MV,1731638075
stanthorpe,-28.6667,151.95,22.46,76,100,2.74,AU,1731638076
namtsy,62.7161,129.6658,-20.78,93,100,2.34,RU,1731638077
dolores,-36.3132,-57.6792,16.32,60,5,4.44,AR,1731638078
swakopmund,-22.6833,14.5333,15.77,83,0,1.26,NA,1731638079
zag,46.9441,99.165,-18.25,67,10,0.83,MN,1731638080
lerwick,60.1545,-1.1494,10.49,85,100,11.32,GB,1731638082
gadzhiyevo,69.2551,33.3362,1.11,87,98,14.19,RU,1731638083
lijiang,26.8688,100.2207,13.83,48,0,1.53,CN,1731638084
dampit,-8.2116,112.7493,32.31,49,32,2.26,ID,1731638085
atamyrat,37.8357,65.2106,5.61,64,6,3.32,TM,1731638086
san andres,12.5847,-81.7006,28.01,83,20,1.54,CO,1731637825
puerto san jose,13.9256,-90.8244,26.48,86,100,2.96,GT,1731638088
las khorey,11.1595,48.1967,25.22,42,99,2.83,SO,1731638089
port-vila,-17.7338,168.3219,30.78,70,75,3.6,VU,1731638091
pimentel,-6.8367,-79.9342,19.16,77,0,4.63,PE,1731638092
cooma,-36.2333,149.1333,22.87,34,43,5.78,AU,1731638093
taoudenni,22.6783,-3.9836,22.54,16,2,1.33,ML,1731638094
sanctuary point,-35.1114,150.629,19.05,64,85,2.06,AU,1731638095
st anne,49.715,-2.2042,12.8,73,27,4.79,GG,1731638096
umm kaddadah,13.6017,26.6876,21.61,32,1,7.49,SD,1731638097
kavaratti,10.5669,72.642,28.44,74,100,2.82,IN,1731638098
baiti,13.745,-14.7482,24.17,52,81,2.65,SN,1731638100
kone,-21.0595,164.8658,28.46,58,79,3.28,NC,1731638101
kot diji,27.3427,68.7083,25.23,46,0,2.29,PK,1731638102
puerto cabezas,14.0351,-83.3888,24.72,87,100,2.57,NI,1731638103
kingston,17.997,-76.7936,27.53,83,20,1.54,JM,1731637861
upper dir,35.2058,71.8756,9.21,90,100,0.58,PK,1731638105
kendari,-3.945,122.4989,31.64,61,56,2.63,ID,1731638106
nova vicosa,-17.8919,-39.3719,23.84,87,99,2.54,BR,1731638109
samut sakhon,13.5833,100.3,28.78,75,98,1.61,TH,1731638110
salekhard,66.53,66.6019,-12.67,96,100,1.78,RU,1731638112
swan hill,-35.3378,143.5544,27.11,17,37,1.87,AU,1731638113
island harbour,50.724,-1.2758,8.44,51,15,1.88,GB,1731638114
nantucket,41.2835,-70.0995,6.19,60,0,8.06,US,1731638115
labytnangi,66.6572,66.4183,-13.54,96,100,1.28,RU,1731638117
ingeniero guillermo n. juarez,-23.9,-61.85,22.92,34,35,3.08,AR,1731638118
kattivakkam,13.2167,80.3167,26.73,99,100,3.53,IN,1731638119
tomatlan,19.9333,-105.25,22.59,95,9,0.83,MX,1731638120
nuku'alofa,-21.1333,-175.2,27.19,83,40,4.63,TO,1731638122
harper,4.375,-7.7169,25.51,87,41,3.26,LR,1731638123
al jawf,29.5,38.75,16.72,52,40,4.15,SA,1731638124
happy valley-goose bay,53.3168,-60.3315,-9.83,92,75,2.06,CA,1731638039
skurup,55.4784,13.5019,2.09,100,100,2.06,SE,1731638127
chibougamau,49.9168,-74.3659,-2.21,69,75,1.54,CA,1731638128
rosarito,32.3333,-117.0333,16.54,86,48,3.73,MX,1731637803
zhytkavichy,52.2168,27.8561,1.42,97,100,3.48,BY,1731638130
alaghsas,17.0187,8.0168,23.51,15,68,4.43,NE,1731638131
ladovskaya balka,45.6297,41.4023,6.27,91,100,1.23,RU,1731638132
amga,60.8953,131.9608,-17.14,91,100,2.27,RU,1731638133
oyama,36.3,139.8,18.11,72,100,1.48,JP,1731638134
xinyuan,37.3,99.0,2.17,32,98,2.16,CN,1731638135
ma'an,26.9775,110.7211,24.64,58,18,1.7,CN,1731638137
mukalla,14.5425,49.1242,23.88,58,33,0.89,YE,1731638139
siwa oasis,29.2041,25.5195,17.65,62,0,1.71,EG,1731638140
kui buri,12.0828,99.8543,29.99,67,93,1.06,TH,1731638141
chiredzi,-21.05,31.6667,18.32,77,91,3.19,ZW,1731638142
sel'tso,53.3675,34.1,-0.7,86,100,4.6,RU,1731638143
opuwo,-18.0607,13.84,21.17,70,100,5.14,NA,1731638145
bandiagara,14.3501,-3.6104,26.8,26,49,4.34,ML,1731638146
motueka,-41.1333,173.0167,22.28,57,94,2.8,NZ,1731638147
gamba,-2.65,10.0,23.49,96,100,1.45,GA,1731638148
igrim,63.1906,64.4162,-1.6,93,100,3.93,RU,1731638149
prince rupert,54.3161,-130.3201,5.83,79,75,7.2,CA,1731638150
okhotsk,59.3833,143.3,-14.47,65,97,5.0,RU,1731638151
conception bay south,47.4999,-52.9981,11.91,98,100,13.29,CA,1731637988
kapuskasing,49.4169,-82.4331,0.05,93,100,2.57,CA,1731638084
shingu,33.7333,135.9833,21.24,73,100,0.64,JP,1731638155
am timan,11.0297,20.2827,21.71,24,3,2.53,TD,1731638156
minas de matahambre,22.5887,-83.9447,23.12,85,62,1.73,CU,1731638157
hiratacho,35.4333,132.8167,16.98,82,75,1.54,JP,1731638158
safotu,-13.4513,-172.4018,27.53,85,58,11.51,WS,1731638159
la sarre,48.8002,-79.1996,-1.06,66,100,2.73,CA,1731638160
bardai,11.65,7.2333,19.43,23,0,4.51,NG,1731638161
kolonia,50.9333,6.95,8.86,89,100,1.54,DE,1731638163
katsina,12.9894,7.6006,21.84,20,0,4.2,NG,1731638164
butembo,0.15,29.2833,14.32,92,100,1.07,CD,1731638165
yatou,37.15,122.3833,16.34,91,100,4.09,CN,1731638166
durach,47.7,10.35,1.23,89,18,1.54,DE,1731638167
fort bragg,35.139,-79.006,12.12,95,100,3.6,US,1731638168
puerto armuelles,8.2833,-82.8667,23.94,92,100,1.79,PA,1731638169
lihue,21.9789,-159.3672,25.77,74,100,9.26,US,1731638170
khanbari,27.3747,87.2039,21.43,67,19,0.37,NP,1731638172
crane,31.3974,-102.3501,15.41,38,0,5.79,US,1731638173
zaragoza,41.6561,-0.8773,11.25,83,75,0.51,ES,1731638174
dong ha,16.8163,107.1003,28.29,75,17,1.57,VN,1731638175
murovani kurylivtsi,48.7235,27.5189,0.27,91,100,4.3,UA,1731638176
modasa,23.4667,73.3,23.35,42,2,2.92,IN,1731638177
brookings,44.3114,-96.7984,3.4,96,20,3.09,US,1731638178
kapa'a,22.0752,-159.319,26.18,78,100,9.26,US,1731637891
jianshui,23.6363,102.8264,21.09,53,0,1.8,CN,1731638181
buka,40.8108,69.1986,2.71,70,1,1.05,UZ,1731638182
talakan,50.3167,130.3667,-4.68,48,5,2.52,RU,1731638183
holualoa,19.6228,-155.9522,26.02,87,40,2.57,US,1731638184
kimbe,-5.5502,150.1429,31.67,57,19,3.07,PG,1731638185
kosh-agach,50.0,88.6667,-16.11,90,100,0.61,RU,1731638186
yeppoon,-23.1333,150.7333,27.3,68,66,6.0,AU,1731638187
vargashi,55.3556,65.8467,-5.85,90,100,5.67,RU,1731638188
wiesenburg,52.1167,12.45,4.41,97,67,2.62,DE,1731638190
robertsport,6.7533,-11.3686,26.69,79,36,2.9,LR,1731638191
nampula,-15.1165,39.2666,22.97,83,75,3.6,MZ,1731638192
sidi ifni,29.3797,-10.173,18.97,56,5,1.41,MA,1731638193
sao vicente,-23.9631,-46.3919,20.55,26,100,2.69,BR,1731637925
meadow lake,34.8014,-106.5436,10.38,28,0,1.77,US,1731638195
skipton,53.9614,-2.0168,7.27,97,75,2.24,GB,1731638196
fort stockton,30.894,-102.8793,18.03,27,0,6.69,US,1731638197
nadym,65.5333,72.5167,-12.87,94,100,8.3,RU,1731638199
dudinka,69.4058,86.1778,-32.83,98,80,3.55,RU,1731638200
az zuwaytinah,30.9522,20.1202,19.57,48,3,4.76,LY,1731638201
ta`u,-14.2336,-169.5144,26.63,75,100,9.49,AS,1731637970
pasuquin,18.3328,120.6177,27.97,89,75,6.69,PH,1731638203
mizan teferi,6.9833,35.5833,16.31,86,22,1.52,ET,1731638204
saudarkrokur,65.7461,-19.6394,-0.28,82,89,12.59,IS,1731638205
las palmas,28.4204,-14.0131,16.44,82,0,2.57,ES,1731638207
bocas del toro,9.3333,-82.25,26.44,82,100,2.02,PA,1731638208
lospalos,-8.5186,127.0025,30.96,52,71,5.09,TL,1731638209
ceerigaabo,10.6162,47.368,12.64,37,100,2.64,SO,1731638210
decatur,39.8403,-88.9548,9.03,81,100,4.63,US,1731638214
ivdel',60.6911,60.4206,-1.38,87,100,2.4,RU,1731637939
taitung city,22.7583,121.1444,25.15,94,75,2.06,TW,1731638216
arawa,-6.2132,155.5367,31.1,62,4,2.11,PG,1731638217
muynoq,43.7683,59.0214,0.59,56,100,3.47,UZ,1731638218
ivankiv,50.9386,29.8943,0.05,97,100,3.96,UA,1731638219
sena madureira,-9.0656,-68.6569,25.18,71,33,0.59,BR,1731638220
igarka,67.4667,86.5833,-28.42,97,100,5.2,RU,1731638221
ha'il,27.5219,41.6907,14.01,77,0,1.03,SA,1731638211
mongu,-15.2484,23.1274,20.0,87,100,3.6,ZM,1731638224
tonghae,37.5439,129.1069,15.35,74,100,1.71,KR,1731638225
narvik,68.4384,17.4272,2.67,97,100,2.23,NO,1731638226
angra do heroismo,38.65,-27.2167,17.34,77,75,6.23,PT,1731638227
ongjin,37.9347,125.3619,16.77,71,91,4.71,KP,1731638228
tazovsky,67.4667,78.7,-22.88,96,100,6.26,RU,1731638229
canitas de felipe pescador,23.6,-102.7167,16.71,54,35,4.54,MX,1731638230
mangai,-4.05,19.5333,20.67,99,100,1.33,CD,1731638231
yibin,28.7667,104.6238,20.41,76,98,0.78,CN,1731638233
dryden,49.7833,-92.7503,3.16,100,100,2.06,CA,1731638234
flin flon,54.7682,-101.865,1.2,97,100,5.04,CA,1731638235
nongpoh,25.9,91.8833,22.0,68,0,1.24,IN,1731638236
christchurch,-43.5333,172.6333,15.74,82,100,9.26,NZ,1731637655
santa ana,33.7456,-117.8678,16.58,82,0,2.06,US,1731638238
bitkine,11.9801,18.2138,21.63,15,0,3.18,TD,1731638239
sungailiat,-1.85,106.1333,29.68,67,98,1.73,ID,1731638240
bodaybo,57.8506,114.1933,-16.51,82,83,0.46,RU,1731638242
harrisonville,38.6533,-94.3488,4.88,81,0,0.0,US,1731638243
smithers,54.7804,-127.1743,2.18,87,40,0.0,CA,1731638244
olyokminsk,60.3736,120.4264,-17.23,89,88,1.25,RU,1731638245
bubaque,11.2833,-15.8333,28.48,63,15,3.21,GW,1731638246
tazacorte,28.629,-17.9293,18.54,83,75,2.57,ES,1731638247
argo,37.6333,22.7333,13.74,81,0,1.92,GR,1731638248
tamandare,-8.7597,-35.1047,24.54,74,1,4.01,BR,1731638249
quepos,9.4236,-84.1652,24.04,88,100,1.32,CR,1731638251
marshall,34.3834,-86.3333,14.86,77,100,4.12,US,1731638252
alpena,45.0617,-83.4327,7.28,96,100,3.09,US,1731638253
sierra grande,-41.606,-65.3557,24.21,28,93,6.1,AR,1731638254
waliso,8.5333,37.9833,11.32,60,81,4.58,ET,1731638256
unhel,23.3333,75.5667,22.05,40,2,2.0,IN,1731638257
nema,57.5067,50.5011,-1.29,89,100,4.49,RU,1731638258
mili,6.0815,171.735,27.84,74,92,3.05,MH,1731638260
laojunmiao,39.8333,97.7333,-2.08,74,84,1.2,CN,1731638261
luderitz,-26.6481,15.1594,19.25,52,0,5.98,NA,1731638262
al bayda,32.7627,21.7551,14.26,52,3,4.47,LY,1731638263
kyzyl-mazhalyk,51.1333,90.6,-12.93,55,100,0.83,RU,1731638264
boali,4.8005,18.1275,22.31,68,10,1.6,CF,1731638265
mirny,62.5353,113.9611,-20.31,96,100,1.96,RU,1731638266
kyongsong,41.5878,129.6061,13.79,54,6,2.46,KP,1731638267
sumbawa besar,-8.5,117.4333,35.99,39,77,3.97,ID,1731638268
walvis bay,-22.9575,14.5053,16.53,88,0,3.09,NA,1731638270
alice springs,-23.7,133.8833,30.75,13,33,3.6,AU,1731638271
lisakovsk,52.5369,62.4936,-2.38,84,59,5.92,KZ,1731638272
serafimovskiy,54.4241,53.7964,-2.92,91,100,4.73,RU,1731638107
suntar,62.1444,117.6319,-19.25,94,100,1.48,RU,1731638274
hampshire,42.3334,-72.5829,2.99,56,75,0.0,US,1731638031
floro,61.5996,5.0328,7.98,93,100,5.66,NO,1731638276
qarawul,37.2202,68.7804,8.52,75,83,0.28,AF,1731638277
northam,51.0333,-4.2167,9.23,88,1,3.07,GB,1731638279
erenhot,43.6475,111.9767,6.6,56,100,8.28,CN,1731638280
lahore,31.5497,74.3436,15.99,94,100,0.0,PK,1731638184
luanda,-8.8368,13.2343,24.0,94,75,1.03,AO,1731637783
jiagedaqi,50.4167,124.1167,-6.26,69,100,2.27,CN,1731638283
kasane,-17.8167,25.15,18.99,78,100,3.95,BW,1731638268
vershino-darasunskiy,52.35,115.5167,-12.6,92,100,4.15,RU,1731638285
ciudad lazaro cardenas,17.9583,-102.2,25.73,81,45,1.55,MX,1731638286
dalnegorsk,44.5604,135.5701,7.22,68,54,4.05,RU,1731638287
qamdo,31.1667,97.2333,4.16,31,2,2.65,CN,1731638289
niafunke,15.9322,-3.9906,26.26,22,45,4.25,ML,1731638290
tambura,5.6,27.4667,22.63,66,75,1.62,SS,1731638291
caburan,5.9181,125.6411,27.49,74,75,1.62,PH,1731638292
kamaishi,39.2667,141.8833,15.93,58,74,1.0,JP,1731638293
camabatela,-8.1881,15.375,16.62,96,100,0.95,AO,1731638294
yongchuan,29.3514,105.8947,19.96,76,100,1.46,CN,1731638295
rodolfo sanchez taboada,31.7167,-116.5667,15.61,85,4,2.51,MX,1731638296
samarinda,-0.5,117.15,33.21,51,84,1.21,ID,1731638298
inarajan village,13.2736,144.7484,30.78,85,79,5.21,GU,1731638299
potsdam,52.3989,13.0657,6.72,96,83,1.34,DE,1731638030
mitsamiouli,-11.3847,43.2844,26.55,76,45,0.83,KM,1731638301
balkh,36.75,67.0,6.54,68,75,1.51,AF,1731638302
corner brook,48.9667,-57.9484,3.97,96,100,5.85,CA,1731638303
kyren,51.6828,102.1408,-8.29,45,85,1.71,RU,1731638304
chachapoyas,-6.2317,-77.869,11.33,80,99,0.81,PE,1731638138
marsabit,2.3284,37.9899,18.88,79,84,6.32,KE,1731638306
sultanpur,26.2667,82.0667,22.92,37,0,2.45,IN,1731638308
livezi-vale,46.4167,26.7333,-1.42,100,75,0.51,RO,1731638309
saint-philippe,-21.3585,55.7679,24.01,78,15,4.28,RE,1731638310
alibag,18.6411,72.8792,27.44,61,100,2.9,IN,1731638311
sittwe,20.15,92.9,26.27,67,39,2.18,MM,1731638312
santiago de cao,-7.9589,-79.2392,18.07,82,40,3.6,PE,1731638313
uacu cungo,-11.3634,15.1208,16.24,96,97,1.18,AO,1731638314
sao gabriel da cachoeira,-0.1303,-67.0892,22.91,88,100,0.35,BR,1731638315
lokomotivnyy,53.0118,60.5684,-2.89,87,95,6.03,RU,1731638316
port kembla,-34.4667,150.9,20.19,69,87,2.85,AU,1731638318
san ignacio,17.1561,-89.0714,23.08,100,100,5.14,BZ,1731638320
smirnykh,49.75,142.8333,1.83,56,100,1.0,RU,1731638321
san luis de la loma,17.2706,-100.8939,25.83,85,38,1.55,MX,1731638322
novodvinsk,64.4165,40.8122,0.86,82,62,4.06,RU,1731638323
broken hill,-31.95,141.4333,27.42,14,2,3.32,AU,1731638324
jinchang,38.4953,102.1739,3.81,53,71,4.2,CN,1731638230
nabire,-3.3667,135.4833,27.31,80,100,2.32,ID,1731638327
labrador city,52.9463,-66.9114,-5.46,68,0,0.0,CA,1731638328
taroa,8.7058,171.2275,27.92,72,98,2.01,MH,1731638329
grajau,-5.8194,-46.1386,24.31,83,99,1.03,BR,1731638330
plettenberg bay,-34.0527,23.3716,14.8,81,91,1.4,ZA,1731638331
santona,43.4439,-3.4576,11.71,79,9,3.21,ES,1731638332
bamboo flat,11.7,92.7167,29.05,79,40,1.03,IN,1731638333
arish,31.1316,33.7984,19.08,75,0,2.34,EG,1731638334
sisimiut,66.9395,-53.6735,-7.33,84,84,6.33,GL,1731638336
le puy-en-velay,45.0437,3.8852,2.3,93,88,0.47,FR,1731638337
nizhnesortymskiy,62.4397,71.7603,-9.06,95,100,5.72,RU,1731638338
jalai nur,49.45,117.7,-0.44,80,100,1.86,CN,1731638281
athagarh,20.5333,85.6167,24.55,60,6,2.22,IN,1731638340
nilsia,63.2,28.0833,0.92,88,100,3.57,FI,1731638341
boa vista,2.8197,-60.6733,24.99,83,40,2.06,BR,1731638191
withernsea,53.7311,0.0335,6.95,89,63,4.0,GB,1731638343
ataq,14.5377,46.8319,17.15,35,9,1.13,YE,1731638344
pechora,65.1472,57.2244,0.5,98,100,4.55,RU,1731638346
mangrol,21.1167,70.1167,25.94,43,9,3.49,IN,1731638347
carbonear,47.7332,-53.2148,12.3,99,100,11.2,CA,1731638348
bachhrawan,26.4833,81.1167,22.91,36,0,1.64,IN,1731638349
santiago,-33.4569,-70.6483,19.92,67,0,4.63,CL,1731638079
rongelap,11.1635,166.8941,28.52,70,52,5.03,MH,1731638351
punta del este,-34.9667,-54.95,19.06,72,0,3.6,UY,1731638352
wad medani,14.4012,33.5199,27.3,46,8,4.52,SD,1731638355
abu zabad,12.35,29.25,23.51,30,31,6.09,SD,1731638356
salamanca,40.8333,-6.0,10.27,88,100,2.43,ES,1731638357
puerto gaitan,4.3133,-72.0816,25.02,88,99,1.68,CO,1731638358
quatre cocos,-20.2078,57.7625,24.49,74,27,4.52,MU,1731638359
mavelikara,9.2667,76.55,26.5,85,77,1.54,IN,1731638360
misratah,32.3754,15.0925,19.64,61,0,3.5,LY,1731638361
manalurpettai,12.0167,79.1,25.19,83,100,1.68,IN,1731638362
alto barinas,8.5931,-70.2261,23.5,87,77,1.22,VE,1731638364
rossosh',51.1209,38.5116,0.09,84,98,5.44,RU,1731638366
taoyuan city,24.9937,121.297,29.4,83,75,2.06,TW,1731638367
la'ie,21.6477,-157.9253,26.66,78,12,4.92,US,1731638369
altai,46.3722,96.2583,-10.8,38,18,1.95,MN,1731638370
cambria,35.5641,-121.0808,12.25,88,35,3.13,US,1731638372
hitoyoshi,32.2167,130.75,21.65,88,100,0.76,JP,1731638374
rabaul,-4.1967,152.1721,29.08,66,3,2.51,PG,1731638375
antsiranana,-12.2787,49.2917,25.61,78,64,6.02,MG,1731638374
suicheng,33.8963,117.9331,20.49,68,21,3.24,CN,1731638377
richards bay,-28.783,32.0377,18.99,75,100,2.48,ZA,1731638378
scottburgh,-30.2867,30.7532,16.69,88,41,3.76,ZA,1731638379
ulsteinvik,62.3432,5.8487,11.5,84,80,7.2,NO,1731638232
kerikeri,-35.2268,173.9474,17.62,99,100,2.54,NZ,1731638382
arno,60.1167,18.6333,5.29,74,93,5.8,SE,1731638383
namie,37.4833,141.0,16.66,93,100,1.51,JP,1731638384
colonia,50.9333,6.95,8.86,89,100,1.54,DE,1731638385
xining,36.6167,101.7667,5.04,70,36,3.81,CN,1731638233
bahia de kino,28.8333,-111.9333,21.2,52,0,1.68,MX,1731638387
pedregal,8.3667,-82.4333,22.05,100,75,2.57,PA,1731638388
ar rudayyif,34.3827,8.1555,15.42,46,0,3.36,TN,1731638390
mejit,10.2753,170.8646,26.69,75,100,0.78,MH,1731638391
lubango,-14.9172,13.4925,16.92,94,100,1.03,AO,1731638392
uniao da vitoria,-26.23,-51.0864,15.19,94,88,1.84,BR,1731638296
